[
  {
    "distance": "0.01 km",
    "atm_code": 4678,
    "bank_name": "ICICI",
    "rating": "5 / 5",
    "email": "maureenluna@boilicon.com",
    "phone": "+91 (955) 551-2257",
    "address": "897 Sapphire Street",
    "city": "Tolu",
    "district": "Minnesota",
    "state": "South Dakota",
    "pincode": 442731,
    "open_time": "07:34:56",
    "close_time": "03:00:07",
    "latitude": 15.520554,
    "longitude": 71.174278
  },
  {
    "distance": "4.28 km",
    "atm_code": 5925,
    "bank_name": "ICICI",
    "rating": "0.3 / 5",
    "email": "maureenluna@boilicon.com",
    "phone": "+91 (909) 528-2130",
    "address": "633 Seba Avenue",
    "city": "Stockdale",
    "district": "Kansas",
    "state": "Texas",
    "pincode": 352418,
    "open_time": "06:16:57",
    "close_time": "02:29:58",
    "latitude": 36.824606,
    "longitude": 79.769382
  },
  {
    "distance": "3.28 km",
    "atm_code": 7791,
    "bank_name": "SBI",
    "rating": "3.9 / 5",
    "email": "maureenluna@boilicon.com",
    "phone": "+91 (830) 550-2533",
    "address": "506 Sumpter Street",
    "city": "Dupuyer",
    "district": "West Virginia",
    "state": "Illinois",
    "pincode": 458473,
    "open_time": "04:09:46",
    "close_time": "08:47:59",
    "latitude": 14.197157,
    "longitude": 89.679664
  },
  {
    "distance": "0.05 km",
    "atm_code": 8225,
    "bank_name": "HDFC",
    "rating": "0.3 / 5",
    "email": "maureenluna@boilicon.com",
    "phone": "+91 (994) 504-2371",
    "address": "121 Dare Court",
    "city": "Ripley",
    "district": "Nebraska",
    "state": "American Samoa",
    "pincode": 401760,
    "open_time": "08:45:01",
    "close_time": "02:43:05",
    "latitude": 36.850539,
    "longitude": 73.159213
  },
  {
    "distance": "4.2 km",
    "atm_code": 9986,
    "bank_name": "HDFC",
    "rating": "3.6 / 5",
    "email": "maureenluna@boilicon.com",
    "phone": "+91 (918) 454-2296",
    "address": "954 Malta Street",
    "city": "Sattley",
    "district": "Palau",
    "state": "Maryland",
    "pincode": 164881,
    "open_time": "04:38:26",
    "close_time": "06:24:46",
    "latitude": 31.108868,
    "longitude": 85.559936
  },
  {
    "distance": "4.99 km",
    "atm_code": 2233,
    "bank_name": "ICICI",
    "rating": "4.7 / 5",
    "email": "maureenluna@boilicon.com",
    "phone": "+91 (944) 440-3961",
    "address": "199 Crosby Avenue",
    "city": "Allentown",
    "district": "Iowa",
    "state": "Alaska",
    "pincode": 310500,
    "open_time": "04:43:15",
    "close_time": "12:19:55",
    "latitude": 17.202158,
    "longitude": 85.786408
  },
  {
    "distance": "3.25 km",
    "atm_code": 6937,
    "bank_name": "SBI",
    "rating": "1.6 / 5",
    "email": "maureenluna@boilicon.com",
    "phone": "+91 (984) 411-2280",
    "address": "939 Applegate Court",
    "city": "Frierson",
    "district": "Marshall Islands",
    "state": "Michigan",
    "pincode": 370768,
    "open_time": "01:33:11",
    "close_time": "10:55:53",
    "latitude": 33.236992,
    "longitude": 69.878897
  },
  {
    "distance": "3.05 km",
    "atm_code": 8608,
    "bank_name": "HDFC",
    "rating": "3.4 / 5",
    "email": "maureenluna@boilicon.com",
    "phone": "+91 (943) 517-3154",
    "address": "479 Irving Street",
    "city": "Dellview",
    "district": "Mississippi",
    "state": "Rhode Island",
    "pincode": 411568,
    "open_time": "02:08:56",
    "close_time": "06:23:47",
    "latitude": 18.095786,
    "longitude": 86.026919
  },
  {
    "distance": "2.62 km",
    "atm_code": 1585,
    "bank_name": "HDFC",
    "rating": "3.3 / 5",
    "email": "maureenluna@boilicon.com",
    "phone": "+91 (975) 545-2582",
    "address": "315 Gerritsen Avenue",
    "city": "Reno",
    "district": "Washington",
    "state": "Arizona",
    "pincode": 275236,
    "open_time": "01:34:10",
    "close_time": "02:39:58",
    "latitude": 14.762405,
    "longitude": 79.027296
  },
  {
    "distance": "4.98 km",
    "atm_code": 9017,
    "bank_name": "HDFC",
    "rating": "2.6 / 5",
    "email": "maureenluna@boilicon.com",
    "phone": "+91 (936) 570-2344",
    "address": "203 Conover Street",
    "city": "Sardis",
    "district": "Virgin Islands",
    "state": "New Mexico",
    "pincode": 450180,
    "open_time": "10:33:39",
    "close_time": "11:32:35",
    "latitude": 12.301445,
    "longitude": 61.328097
  }
]