{ "atm_details": [
  {
    "atm_code": 2055,
    "bank_name": "Oriental Bank of Commerce",
    "rating": 1.8,
    "total_rating": 495,
    "address": "1/3, Sector-4, Ballabhgarh",
    "city": "Faridabad",
    "district": "Faridabad",
    "state": "Haryana",
    "pincode": 121004,
    "latitude": 28.350508,
    "longitude": 77.329702,
    "non_functional_cnt": 483,
    "img": "obc"
  },
  {
    "atm_code": 3988,
    "bank_name": "SBI",
    "rating": 0.03,
    "total_rating": 280,
    "address": "1/2, Sector-3, Ballabhgarh",
    "city": "Faridabad",
    "district": "Faridabad",
    "state": "Haryana",
    "pincode": 121005,
    "latitude": 28.363966,
    "longitude": 77.324669,
    "non_functional_cnt": 48,
    "img": "sbi"
  },
  {
    "atm_code": 4549,
    "bank_name": "HDFC",
    "rating": 1.73,
    "total_rating": 863,
    "address": "1/3, Sector-5, Ballabhgarh",
    "city": "Faridabad",
    "district": "Faridabad",
    "state": "Haryana",
    "pincode": 121005,
    "latitude": 28.363260,
    "longitude": 77.326569,
    "non_functional_cnt": 3,
    "img": "hdfc"
  },
  {
    "atm_code": 2814,
    "bank_name": "Axis",
    "rating": 3.25,
    "total_rating": 837,
    "address": "1/4, Sector-4, Ballabhgarh",
    "city": "Faridabad",
    "district": "Faridabad",
    "state": "Haryana",
    "pincode": 121005,
    "latitude": 28.363871,
    "longitude": 77.325113,
    "non_functional_cnt": 83,
    "img": "axis"
  },
  {
    "atm_code": 5375,
    "bank_name": "Axis Bank",
    "rating": 2.04,
    "total_rating": 554,
    "address": "1/5, Sector-4, Ballabhgarh",
    "city": "Faridabad",
    "district": "Faridabad",
    "state": "Haryana",
    "pincode": 121004,
    "latitude": 28.366090,
    "longitude": 77.329191,
    "non_functional_cnt": 43,
    "img": "axis"
  },
  {
    "atm_code": 5876,
    "bank_name": "HDFC",
    "rating": 1.2,
    "total_rating": 775,
    "address": "1/5, Sector-2, Ballabhgarh",
    "city": "Faridabad",
    "district": "Faridabad",
    "state": "Haryana",
    "pincode": 121001,
    "latitude": 28.362268,
    "longitude": 77.334277,
    "non_functional_cnt": 491,
    "img": "hdfc"
  },
  {
    "atm_code": 1915,
    "bank_name": "Punjab National Bank",
    "rating": 0.42,
    "total_rating": 448,
    "address": "1/3, Sector-3, Ballabhgarh",
    "city": "Faridabad",
    "district": "Faridabad",
    "state": "Haryana",
    "pincode": 121005,
    "latitude": 28.362439,
    "longitude": 77.335395,
    "non_functional_cnt": 431,
    "img": "pnb"
  },
  {
    "atm_code": 8280,
    "bank_name": "ICICI",
    "rating": 4.3,
    "total_rating": 537,
    "address": "1/5, Sector-3, Ballabhgarh",
    "city": "Faridabad",
    "district": "Faridabad",
    "state": "Haryana",
    "pincode": 121005,
    "latitude": 28.370303,
    "longitude": 77.329512,
    "non_functional_cnt": 53,
    "img": "ICICI"
  },
  {
    "atm_code": 7532,
    "bank_name": "Union Bank of India",
    "rating": 3.52,
    "total_rating": 874,
    "address": "1/3, Sector-1, Ballabhgarh",
    "city": "Faridabad",
    "district": "Faridabad",
    "state": "Haryana",
    "pincode": 121001,
    "latitude": 28.371776,
    "longitude": 77.333323,
    "non_functional_cnt": 68,
    "img": "ubi"
  },
  {
    "atm_code": 9555,
    "bank_name": "Union Bank of India",
    "rating": 0.56,
    "total_rating": 960,
    "address": "1/2, Sector-5, Ballabhgarh",
    "city": "Faridabad",
    "district": "Faridabad",
    "state": "Haryana",
    "pincode": 121005,
    "latitude": 28.352412,
    "longitude": 77.328962,
    "non_functional_cnt": 4,
    "img": "ubi"
  }
]}