{"bm_details":[
 {
   "id": 0,
   "bank_name": "Union Bank of India",
   "bank_mitra_code": 9149845120,
   "bank_mitra_name": "Shyam",
   "mobile_no": 43837038370,
   "address": "468, lorem, Road",
   "city": "Jaunpur",
   "pincode": 717900,
   "district": "A1",
   "state": "Karnataka",
   "rating": 3.079212359,
   "total_rating": 3,
   "latitude": 28.34029104,
   "longitude": 77.37141638,
   "img": "ubi"
 },
 {
   "id": 1,
   "bank_name": "Axis Bank",
   "bank_mitra_code": 3917036634,
   "bank_mitra_name": "Mansi",
   "mobile_no": 24531006496,
   "address": "281, boron, Road",
   "city": "Bangalore",
   "pincode": 975277,
   "district": "C3",
   "state": "Karnataka",
   "rating": 4.8889257,
   "total_rating": 5,
   "latitude": 28.41807989,
   "longitude": 77.37468746,
   "img": "axis"
 },
 {
   "id": 2,
   "bank_name": "OBC",
   "bank_mitra_code": 3725541670,
   "bank_mitra_name": "Jangra",
   "mobile_no": 33024214081,
   "address": "443, ipsum, Road",
   "city": "Gwalior",
   "pincode": 336933,
   "district": "G7",
   "state": "Tamil Nadu",
   "rating": 3.841831948,
   "total_rating": 5,
   "latitude": 28.29916261,
   "longitude": 77.27443075,
   "img": "obc"
 },
 {
   "id": 3,
   "bank_name": "OBC",
   "bank_mitra_code": 2166173960,
   "bank_mitra_name": "Shrey",
   "mobile_no": 32982954329,
   "address": "143, lorem, City",
   "city": "Gwalior",
   "pincode": 776541,
   "district": "H8",
   "state": "Haryana",
   "rating": 4.10304616,
   "total_rating": 5,
   "latitude": 28.27415124,
   "longitude": 77.36797862,
   "img": "obc"
 },
 {
   "id": 4,
   "bank_name": "Axis Bank",
   "bank_mitra_code": 2983863787,
   "bank_mitra_name": "Ram",
   "mobile_no": 10035762652,
   "address": "814, ipsum, Nagar",
   "city": "eetanagar",
   "pincode": 790691,
   "district": "B2",
   "state": "Orissa",
   "rating": 3.422621441,
   "total_rating": 3,
   "latitude": 28.35558974,
   "longitude": 77.30934949,
   "img": "axis"
 },
 {
   "id": 5,
   "bank_name": "Axis Bank",
   "bank_mitra_code": 2537348193,
   "bank_mitra_name": "Ram",
   "mobile_no": 24649470535,
   "address": "924, gypsum, City",
   "city": "Fasta",
   "pincode": 579002,
   "district": "A1",
   "state": "Haryana",
   "rating": 3.270314534,
   "total_rating": 5,
   "latitude": 28.42551509,
   "longitude": 77.25890551,
   "img": "axis"
 },
 {
   "id": 6,
   "bank_name": "Axis Bank",
   "bank_mitra_code": 2964362001,
   "bank_mitra_name": "Anish",
   "mobile_no": 88290410534,
   "address": "124, gypsum, Nagar",
   "city": "Bangalore",
   "pincode": 624294,
   "district": "I9",
   "state": "Delhi",
   "rating": 3.470351449,
   "total_rating": 3,
   "latitude": 28.42415547,
   "longitude": 77.42315924,
   "img": "axis"
 },
 {
   "id": 7,
   "bank_name": "ICICI Bank",
   "bank_mitra_code": 5774910895,
   "bank_mitra_name": "Ishaan",
   "mobile_no": 69714375585,
   "address": "367, ipsum, Road",
   "city": "Gwalior",
   "pincode": 878027,
   "district": "J10",
   "state": "Karnataka",
   "rating": 3.336193157,
   "total_rating": 4,
   "latitude": 28.41559063,
   "longitude": 77.27982288,
   "img": "ICICI"
 },
 {
   "id": 8,
   "bank_name": "OBC",
   "bank_mitra_code": 7633735280,
   "bank_mitra_name": "Shrey",
   "mobile_no": 85019208223,
   "address": "876, lorem, Nagar",
   "city": "Bangalore",
   "pincode": 552355,
   "district": "H8",
   "state": "Kerala",
   "rating": 3.305301262,
   "total_rating": 5,
   "latitude": 28.43555485,
   "longitude": 77.3436887,
   "img": "obc"
 },
 {
   "id": 9,
   "bank_name": "Axis Bank",
   "bank_mitra_code": 5536153340,
   "bank_mitra_name": "Ram",
   "mobile_no": 84181493263,
   "address": "422, gypsum, City",
   "city": "Bangalore",
   "pincode": 708900,
   "district": "B2",
   "state": "Kerala",
   "rating": 3.073903387,
   "total_rating": 6,
   "latitude": 28.26691047,
   "longitude": 77.36577526,
   "img": "axis"
 },
 {
   "id": 10,
   "bank_name": "ICICI Bank",
   "bank_mitra_code": 9837904372,
   "bank_mitra_name": "Shyam",
   "mobile_no": 82228464627,
   "address": "643, ipsum, Nagar",
   "city": "Jaunpur",
   "pincode": 404468,
   "district": "B2",
   "state": "Delhi",
   "rating": 4.231759093,
   "total_rating": 5,
   "latitude": 28.45790515,
   "longitude": 77.28221664,
   "img": "ICICI"
 },
 {
   "id": 11,
   "bank_name": "SBI",
   "bank_mitra_code": 2592742765,
   "bank_mitra_name": "Divya",
   "mobile_no": 75952132024,
   "address": "611, ipsum, City",
   "city": "Bangalore",
   "pincode": 579115,
   "district": "J10",
   "state": "Haryana",
   "rating": 3.39692522,
   "total_rating": 3,
   "latitude": 28.44415338,
   "longitude": 77.41346935,
   "img": "sbi"
 },
 {
   "id": 12,
   "bank_name": "OBC",
   "bank_mitra_code": 2082512427,
   "bank_mitra_name": "Ram",
   "mobile_no": 69274310392,
   "address": "878, boron, City",
   "city": "Indirapur",
   "pincode": 237696,
   "district": "D4",
   "state": "Orissa",
   "rating": 3.850521859,
   "total_rating": 5,
   "latitude": 28.26458695,
   "longitude": 77.30343609,
   "img": "obc"
 },
 {
   "id": 13,
   "bank_name": "Union Bank of India",
   "bank_mitra_code": 1284629918,
   "bank_mitra_name": "Jain",
   "mobile_no": 63391915743,
   "address": "637, ipsum, Nagar",
   "city": "Ambala",
   "pincode": 135044,
   "district": "J10",
   "state": "Tamil Nadu",
   "rating": 3.671497495,
   "total_rating": 4,
   "latitude": 28.2843838,
   "longitude": 77.24527144,
   "img": "ubi"
 },
 {
   "id": 14,
   "bank_name": "Union Bank of India",
   "bank_mitra_code": 3398049916,
   "bank_mitra_name": "Shrey",
   "mobile_no": 49678258348,
   "address": "937, boron, City",
   "city": "Fasta",
   "pincode": 991255,
   "district": "A1",
   "state": "Haryana",
   "rating": 4.371395256,
   "total_rating": 3,
   "latitude": 28.32264987,
   "longitude": 77.24293778,
   "img": "ubi"
 },
 {
   "id": 15,
   "bank_name": "OBC",
   "bank_mitra_code": 2090399480,
   "bank_mitra_name": "Shyam",
   "mobile_no": 49029281977,
   "address": "150, lorem, Nagar",
   "city": "Jaunpur",
   "pincode": 178725,
   "district": "F6",
   "state": "Tamil Nadu",
   "rating": 4.029117868,
   "total_rating": 4,
   "latitude": 28.43421941,
   "longitude": 77.33759374,
   "img": "obc"
 },
 {
   "id": 16,
   "bank_name": "OBC",
   "bank_mitra_code": 6960474512,
   "bank_mitra_name": "Anish",
   "mobile_no": 30547671182,
   "address": "442, gypsum, City",
   "city": "Coimbatore",
   "pincode": 644602,
   "district": "E5",
   "state": "Andhra Pradesh",
   "rating": 4.925693835,
   "total_rating": 4,
   "latitude": 28.43914792,
   "longitude": 77.3169216,
   "img": "obc"
 },
 {
   "id": 17,
   "bank_name": "Axis Bank",
   "bank_mitra_code": 8131707543,
   "bank_mitra_name": "Ishaan",
   "mobile_no": 73606001659,
   "address": "500, gypsum, Road",
   "city": "Jaunpur",
   "pincode": 739387,
   "district": "I9",
   "state": "Maharashtra",
   "rating": 3.679042725,
   "total_rating": 4,
   "latitude": 28.35325913,
   "longitude": 77.29327753,
   "img": "axis"
 },
 {
   "id": 18,
   "bank_name": "SBI",
   "bank_mitra_code": 7394407453,
   "bank_mitra_name": "Anish",
   "mobile_no": 55844572499,
   "address": "141, gypsum, Nagar",
   "city": "Coimbatore",
   "pincode": 843750,
   "district": "D4",
   "state": "Karnataka",
   "rating": 3.878740895,
   "total_rating": 6,
   "latitude": 28.41302287,
   "longitude": 77.25425228,
   "img": "sbi"
 },
 {
   "id": 19,
   "bank_name": "Union Bank of India",
   "bank_mitra_code": 9770188400,
   "bank_mitra_name": "Anish",
   "mobile_no": 87348249641,
   "address": "830, lorem, City",
   "city": "Indirapur",
   "pincode": 927087,
   "district": "C3",
   "state": "Tamil Nadu",
   "rating": 3.220787209,
   "total_rating": 3,
   "latitude": 28.40111588,
   "longitude": 77.344884,
   "img": "ubi"
 },
 {
   "id": 20,
   "bank_name": "SBI",
   "bank_mitra_code": 9357159315,
   "bank_mitra_name": "Divya",
   "mobile_no": 85065147181,
   "address": "399, boron, Nagar",
   "city": "Delhi",
   "pincode": 271639,
   "district": "E5",
   "state": "Haryana",
   "rating": 3.142368507,
   "total_rating": 5,
   "latitude": 28.29377467,
   "longitude": 77.4042237,
   "img": "sbi"
 },
 {
   "id": 21,
   "bank_name": "Union Bank of India",
   "bank_mitra_code": 8176289728,
   "bank_mitra_name": "Anish",
   "mobile_no": 14835979971,
   "address": "985, ipsum, Road",
   "city": "Ambala",
   "pincode": 848777,
   "district": "H8",
   "state": "Delhi",
   "rating": 4.956625373,
   "total_rating": 3,
   "latitude": 28.40847212,
   "longitude": 77.41271433,
   "img": "ubi"
 }
]}